{"resultsPage":{"status":"ok","results":{"location":[{"metroArea":{"displayName":"Oslo","lat":59.9167,"country":{"displayName":"Norway"},"lng":10.75,"uri":"http://www.songkick.com/metro_areas/31422-norway-oslo?utm_source=42306&utm_medium=partner","id":31422},"city":{"displayName":"Ekeberg","lat":59.888043,"country":{"displayName":"Norway"},"lng":10.7921805}},{"city":{"lat":59.9167,"lng":10.75,"country":{"displayName":"Norway"},"displayName":"Oslo"},"metroArea":{"lat":59.9167,"lng":10.75,"country":{"displayName":"Norway"},"uri":"http://www.songkick.com/metro_areas/31422-norway-oslo?utm_source=42306&utm_medium=partner","displayName":"Oslo","id":31422}},{"city":{"displayName":"Nesodden","lat":59.80819,"country":{"displayName":"Norway"},"lng":10.691015},"metroArea":{"displayName":"Oslo","lat":59.9167,"country":{"displayName":"Norway"},"lng":10.75,"uri":"http://www.songkick.com/metro_areas/31422-norway-oslo?utm_source=42306&utm_medium=partner","id":31422}},{"city":{"displayName":"Disen","country":{"displayName":"Norway"},"lat":59.94288,"lng":10.79443},"metroArea":{"displayName":"Oslo","country":{"displayName":"Norway"},"id":31422,"uri":"http://www.songkick.com/metro_areas/31422-norway-oslo?utm_source=42306&utm_medium=partner","lat":59.9167,"lng":10.75}},{"metroArea":{"displayName":"Oslo","lat":59.9167,"country":{"displayName":"Norway"},"lng":10.75,"uri":"http://www.songkick.com/metro_areas/31422-norway-oslo?utm_source=42306&utm_medium=partner","id":31422},"city":{"displayName":"Sogn","lat":59.9486111,"country":{"displayName":"Norway"},"lng":10.7447222}},{"metroArea":{"displayName":"Oslo","lat":59.9167,"country":{"displayName":"Norway"},"lng":10.75,"uri":"http://www.songkick.com/metro_areas/31422-norway-oslo?utm_source=42306&utm_medium=partner","id":31422},"city":{"displayName":"Stabekk","lat":59.9083851,"country":{"displayName":"Norway"},"lng":10.6014446}},{"metroArea":{"lat":59.9484,"lng":11.0033,"country":{"displayName":"Norway"},"displayName":"Strømmen","uri":"http://www.songkick.com/metro_areas/69656-norway-strommen?utm_source=42306&utm_medium=partner","id":69656},"city":{"lat":59.9484,"lng":11.0033,"country":{"displayName":"Norway"},"displayName":"Strømmen"}},{"metroArea":{"country":{"displayName":"Norway"},"lat":59.717571,"lng":10.83672,"displayName":"Ski","uri":"http://www.songkick.com/metro_areas/55484-norway-ski?utm_source=42306&utm_medium=partner","id":55484},"city":{"country":{"displayName":"Norway"},"lat":59.717571,"lng":10.83672,"displayName":"Ski"}},{"metroArea":{"lat":59.957,"lng":11.0483,"country":{"displayName":"Norway"},"displayName":"Lillestrøm","uri":"http://www.songkick.com/metro_areas/69461-norway-lillestrom?utm_source=42306&utm_medium=partner","id":69461},"city":{"lat":59.957,"lng":11.0483,"country":{"displayName":"Norway"},"displayName":"Lillestrøm"}},{"city":{"displayName":"Enebakk","lat":59.7679933,"lng":11.0733399,"country":{"displayName":"Norway"}},"metroArea":{"displayName":"Enebakk","lat":59.7679933,"lng":11.0733399,"country":{"displayName":"Norway"},"uri":"http://www.songkick.com/metro_areas/164809-norway-enebakk?utm_source=42306&utm_medium=partner","id":164809}},{"city":{"displayName":"Nesbru","country":{"displayName":"Norway"},"lat":59.85382,"lng":10.49543},"metroArea":{"displayName":"Oslo","country":{"displayName":"Norway"},"id":31422,"uri":"http://www.songkick.com/metro_areas/31422-norway-oslo?utm_source=42306&utm_medium=partner","lat":59.9167,"lng":10.75}},{"city":{"displayName":"Flateby","lat":59.8341598,"lng":11.1401136,"country":{"displayName":"Norway"}},"metroArea":{"displayName":"Enebakk","lat":59.768,"lng":11.0733,"country":{"displayName":"Norway"},"uri":"http://www.songkick.com/metro_areas/164809-norway-enebakk?utm_source=42306&utm_medium=partner","id":164809}},{"metroArea":{"country":{"displayName":"Norway"},"lat":59.857948,"lng":10.47698,"displayName":"Asker","uri":"http://www.songkick.com/metro_areas/56675-norway-asker?utm_source=42306&utm_medium=partner","id":56675},"city":{"country":{"displayName":"Norway"},"lat":59.857948,"lng":10.47698,"displayName":"Asker"}},{"city":{"displayName":"Hadeland","lat":60.0031246,"lng":10.6329131,"country":{"displayName":"Norway"}},"metroArea":{"displayName":"Oslo","lat":59.9167,"uri":"http://www.songkick.com/metro_areas/31422-norway-oslo?utm_source=42306&utm_medium=partner","lng":10.75,"id":31422,"country":{"displayName":"Norway"}}},{"city":{"country":{"displayName":"Norway"},"lat":59.9412401,"displayName":"Bærums Verk","lng":10.5012484},"metroArea":{"country":{"displayName":"Norway"},"lat":59.9167,"displayName":"Oslo","uri":"http://www.songkick.com/metro_areas/31422-norway-oslo?utm_source=42306&utm_medium=partner","lng":10.75,"id":31422}},{"metroArea":{"lat":59.957,"lng":11.0483,"country":{"displayName":"Norway"},"displayName":"Lillestrøm","uri":"http://www.songkick.com/metro_areas/69461-norway-lillestrom?utm_source=42306&utm_medium=partner","id":69461},"city":{"lat":60.0046,"lng":11.0328,"country":{"displayName":"Norway"},"displayName":"Skedsmokorset"}},{"metroArea":{"lat":59.6669,"lng":10.8053,"country":{"displayName":"Norway"},"displayName":"Ås","uri":"http://www.songkick.com/metro_areas/95591-norway-as?utm_source=42306&utm_medium=partner","id":95591},"city":{"lat":59.6669,"lng":10.8053,"country":{"displayName":"Norway"},"displayName":"Ås"}},{"metroArea":{"displayName":"Gjøvik","lat":60.7939,"lng":10.6941,"uri":"http://www.songkick.com/metro_areas/69361-norway-gjovik?utm_source=42306&utm_medium=partner","id":69361,"country":{"displayName":"Norway"}},"city":{"displayName":"På hjørnet Nesbyen AS","lat":59.6660615,"lng":10.7925637,"country":{"displayName":"Norway"}}},{"metroArea":{"country":{"displayName":"Norway"},"lat":59.958038,"lng":10.47908,"displayName":"Lommedalen","uri":"http://www.songkick.com/metro_areas/105096-norway-lommedalen?utm_source=42306&utm_medium=partner","id":105096},"city":{"country":{"displayName":"Norway"},"lat":59.958038,"lng":10.47908,"displayName":"Lommedalen"}},{"metroArea":{"lat":59.7176,"lng":10.8367,"uri":"http://www.songkick.com/metro_areas/55484-norway-ski?utm_source=42306&utm_medium=partner","id":55484,"displayName":"Ski","country":{"displayName":"Norway"}},"city":{"lat":59.6590982,"lng":10.9948725,"displayName":"Tomter","country":{"displayName":"Norway"}}},{"city":{"displayName":"Nittedal","lat":60.1144384,"lng":10.8495216,"country":{"displayName":"Norway"}},"metroArea":{"displayName":"Nittedal","lat":60.1144384,"lng":10.8495216,"country":{"displayName":"Norway"},"uri":"http://www.songkick.com/metro_areas/167039-norway-nittedal?utm_source=42306&utm_medium=partner","id":167039}},{"metroArea":{"displayName":"Askim","lat":59.5806,"lng":11.1692,"country":{"displayName":"Norway"},"uri":"http://www.songkick.com/metro_areas/59368-norway-askim?utm_source=42306&utm_medium=partner","id":59368},"city":{"displayName":"Spydeberg","lat":59.6175855,"lng":11.086233,"country":{"displayName":"Norway"}}},{"metroArea":{"country":{"displayName":"Norway"},"lat":59.815479,"lng":10.26841,"displayName":"Tranby","uri":"http://www.songkick.com/metro_areas/56980-norway-tranby?utm_source=42306&utm_medium=partner","id":56980},"city":{"country":{"displayName":"Norway"},"lat":59.815479,"lng":10.26841,"displayName":"Tranby"}},{"metroArea":{"country":{"displayName":"Norway"},"lat":60.004059,"lng":11.30185,"displayName":"Blaker","uri":"http://www.songkick.com/metro_areas/56950-norway-blaker?utm_source=42306&utm_medium=partner","id":56950},"city":{"country":{"displayName":"Norway"},"lat":60.004059,"lng":11.30185,"displayName":"Blaker"}},{"city":{"displayName":"Lier","country":{"displayName":"Norway"},"lat":59.88421,"lng":10.2228},"metroArea":{"displayName":"Lier","country":{"displayName":"Norway"},"id":176005,"uri":"http://www.songkick.com/metro_areas/176005-norway-lier?utm_source=42306&utm_medium=partner","lat":59.88421,"lng":10.2228}},{"city":{"displayName":"Hølen","country":{"displayName":"Norway"},"lat":59.54376,"lng":10.74531},"metroArea":{"displayName":"Oslo","country":{"displayName":"Norway"},"id":31422,"uri":"http://www.songkick.com/metro_areas/31422-norway-oslo?utm_source=42306&utm_medium=partner","lat":59.9167,"lng":10.75}},{"metroArea":{"country":{"displayName":"Norway"},"lat":59.61335,"lng":10.40508,"displayName":"Svelvik","uri":"http://www.songkick.com/metro_areas/56681-norway-svelvik?utm_source=42306&utm_medium=partner","id":56681},"city":{"country":{"displayName":"Norway"},"lat":59.61335,"lng":10.40508,"displayName":"Svelvik"}},{"city":{"displayName":"Krokkleiva","country":{"displayName":"Norway"},"lat":60.05397,"lng":10.314},"metroArea":{"displayName":"Oslo","country":{"displayName":"Norway"},"id":31422,"uri":"http://www.songkick.com/metro_areas/31422-norway-oslo?utm_source=42306&utm_medium=partner","lat":59.9167,"lng":10.75}},{"city":{"lat":59.7425,"lng":10.2117,"country":{"displayName":"Norway"},"displayName":"Drammen"},"metroArea":{"lat":59.9167,"lng":10.75,"country":{"displayName":"Norway"},"uri":"http://www.songkick.com/metro_areas/31422-norway-oslo?utm_source=42306&utm_medium=partner","displayName":"Oslo","id":31422}},{"metroArea":{"country":{"displayName":"Norway"},"lat":59.58062,"lng":11.1692,"displayName":"Askim","uri":"http://www.songkick.com/metro_areas/59368-norway-askim?utm_source=42306&utm_medium=partner","id":59368},"city":{"country":{"displayName":"Norway"},"lat":59.58062,"lng":11.1692,"displayName":"Askim"}},{"city":{"displayName":"Aurskog","country":{"displayName":"Norway"},"lat":59.92684,"lng":11.46804},"metroArea":{"displayName":"Oslo","country":{"displayName":"Norway"},"id":31422,"uri":"http://www.songkick.com/metro_areas/31422-norway-oslo?utm_source=42306&utm_medium=partner","lat":59.9167,"lng":10.75}},{"metroArea":{"country":{"displayName":"Norway"},"lat":60.142368,"lng":11.17237,"displayName":"Jessheim","uri":"http://www.songkick.com/metro_areas/56664-norway-jessheim?utm_source=42306&utm_medium=partner","id":56664},"city":{"country":{"displayName":"Norway"},"lat":60.142368,"lng":11.17237,"displayName":"Jessheim"}},{"city":{"displayName":"Sande","lat":59.6017622,"lng":10.2543849,"country":{"displayName":"Norway"}},"metroArea":{"displayName":"Vestfold","lat":59.1708,"lng":10.1144,"country":{"displayName":"Norway"},"uri":"http://www.songkick.com/metro_areas/165049-norway-vestfold?utm_source=42306&utm_medium=partner","id":165049}},{"city":{"displayName":"Bjrkelangen","country":{"displayName":"Norway"},"lat":59.88478,"lng":11.56942},"metroArea":{"displayName":"Blaker","country":{"displayName":"Norway"},"id":56950,"uri":"http://www.songkick.com/metro_areas/56950-norway-blaker?utm_source=42306&utm_medium=partner","lat":60.0041,"lng":11.3019}},{"metroArea":{"country":{"displayName":"Norway"},"lat":59.555462,"lng":11.32643,"displayName":"Mysen","uri":"http://www.songkick.com/metro_areas/69496-norway-mysen?utm_source=42306&utm_medium=partner","id":69496},"city":{"country":{"displayName":"Norway"},"lat":59.555462,"lng":11.32643,"displayName":"Mysen"}},{"metroArea":{"country":{"displayName":"Norway"},"lat":59.76165,"lng":10.03602,"displayName":"Nedre Eiker","uri":"http://www.songkick.com/metro_areas/69511-norway-nedre-eiker?utm_source=42306&utm_medium=partner","id":69511},"city":{"country":{"displayName":"Norway"},"lat":59.76165,"lng":10.03602,"displayName":"Nedre Eiker"}},{"city":{"displayName":"Mjøndalen","country":{"displayName":"Norway"},"lat":59.74976,"lng":10.01419},"metroArea":{"displayName":"Buskerud","country":{"displayName":"Norway"},"id":165134,"uri":"http://www.songkick.com/metro-areas/165134-norway-buskerud?utm_source=42306&utm_medium=partner","lat":60.4846,"lng":8.69838}},{"metroArea":{"country":{"displayName":"Norway"},"lat":60.16613,"lng":10.25823,"displayName":"Honefoss","uri":"http://www.songkick.com/metro_areas/69401-norway-honefoss?utm_source=42306&utm_medium=partner","id":69401},"city":{"country":{"displayName":"Norway"},"lat":60.16613,"lng":10.25823,"displayName":"Honefoss"}},{"city":{"displayName":"Skiptvet","country":{"displayName":"Norway"},"lat":59.47323,"lng":11.1625},"metroArea":{"displayName":"Viken","country":{"displayName":"Norway"},"id":176529,"uri":"http://www.songkick.com/metro-areas/176529-norway-viken?utm_source=42306&utm_medium=partner","lat":60.0389,"lng":9.72537}},{"city":{"displayName":"Vikersund","lat":59.9659206,"lng":9.995015,"country":{"displayName":"Norway"}},"metroArea":{"displayName":"Oslo","lat":59.9167,"uri":"http://www.songkick.com/metro_areas/31422-norway-oslo?utm_source=42306&utm_medium=partner","lng":10.75,"id":31422,"country":{"displayName":"Norway"}}},{"metroArea":{"country":{"displayName":"Norway"},"lat":59.434132,"lng":10.67017,"displayName":"Moss","uri":"http://www.songkick.com/metro_areas/69491-norway-moss?utm_source=42306&utm_medium=partner","id":69491},"city":{"country":{"displayName":"Norway"},"lat":59.434132,"lng":10.67017,"displayName":"Moss"}},{"metroArea":{"country":{"displayName":"Norway"},"lat":60.241009,"lng":10.38659,"displayName":"Jevnaker","uri":"http://www.songkick.com/metro_areas/69406-norway-jevnaker?utm_source=42306&utm_medium=partner","id":69406},"city":{"country":{"displayName":"Norway"},"lat":60.241009,"lng":10.38659,"displayName":"Jevnaker"}},{"metroArea":{"country":{"displayName":"Norway"},"lat":59.479759,"lng":10.32206,"displayName":"Holmestrand","uri":"http://www.songkick.com/metro_areas/56669-norway-holmestrand?utm_source=42306&utm_medium=partner","id":56669},"city":{"country":{"displayName":"Norway"},"lat":59.479759,"lng":10.32206,"displayName":"Holmestrand"}},{"city":{"displayName":"Råholt","country":{"displayName":"Norway"},"lat":60.27513,"lng":11.17901},"metroArea":{"displayName":"Oslo","country":{"displayName":"Norway"},"id":31422,"uri":"http://www.songkick.com/metro_areas/31422-norway-oslo?utm_source=42306&utm_medium=partner","lat":59.9167,"lng":10.75}},{"metroArea":{"lat":59.2658,"lng":10.4078,"country":{"displayName":"Norway"},"displayName":"Tønsberg","uri":"http://www.songkick.com/metro_areas/69671-norway-tonsberg?utm_source=42306&utm_medium=partner","id":69671},"city":{"lat":59.4171,"lng":10.4832,"country":{"displayName":"Norway"},"displayName":"Horten"}},{"city":{"displayName":"Rygge","lat":59.3810676,"lng":10.6791283,"country":{"displayName":"Norway"}},"metroArea":{"displayName":"Østfold","lat":59.2558,"lng":11.3279,"country":{"displayName":"Norway"},"uri":"http://www.songkick.com/metro_areas/164969-norway-ostfold?utm_source=42306&utm_medium=partner","id":164969}},{"metroArea":{"country":{"displayName":"Norway"},"lat":60.170502,"lng":11.53858,"displayName":"Nes","uri":"http://www.songkick.com/metro_areas/69516-norway-nes?utm_source=42306&utm_medium=partner","id":69516},"city":{"country":{"displayName":"Norway"},"lat":60.170502,"lng":11.53858,"displayName":"Nes"}},{"metroArea":{"lat":59.3528,"lng":10.87,"country":{"displayName":"Norway"},"displayName":"Råde","uri":"http://www.songkick.com/metro_areas/69581-norway-rade?utm_source=42306&utm_medium=partner","id":69581},"city":{"lat":59.3528,"lng":10.87,"country":{"displayName":"Norway"},"displayName":"Råde"}},{"city":{"displayName":"Borre","lat":59.3840154,"lng":10.459582,"country":{"displayName":"Norway"}},"metroArea":{"displayName":"Oslo","lat":59.9167,"uri":"http://www.songkick.com/metro_areas/31422-norway-oslo?utm_source=42306&utm_medium=partner","lng":10.75,"id":31422,"country":{"displayName":"Norway"}}},{"metroArea":{"lat":60.1424,"lng":11.1724,"uri":"http://www.songkick.com/metro_areas/56664-norway-jessheim?utm_source=42306&utm_medium=partner","id":56664,"displayName":"Jessheim","country":{"displayName":"Norway"}},"city":{"lat":60.3310829,"lng":11.2626125,"displayName":"Eidsvoll","country":{"displayName":"Norway"}}}]},"perPage":50,"page":1,"totalEntries":144}}